<TourList>

<tour band="Broken Social Scene"><show date="10/26/07"><venue name="Moore Theatre"><city>Seattle</city><state>WA</state><geolocation lat="47.603470" lon="-122.329729"/></venue></show><show date="11/14/07"><venue name="Webster Hall"><city>New York</city><state>NY</state><geolocation lat="40.714550" lon="-74.007124"/></venue></show><show date="11/3/07"><venue name="Metro"><city>Chicago</city><state>IL</state><geolocation lat="41.884150" lon="-87.632419"/></venue></show><show date="10/30/07"><venue name="Orpheum Theatre"><city>Los Angeles</city><state>CA</state><geolocation lat="34.053290" lon="-118.245009"/></venue></show><show date="11/13/07"><venue name="Paradise Rock Club"><city>Boston</city><state>MA</state><geolocation lat="42.358635" lon="-71.056699"/></venue></show><show date="10/29/07"><venue name="The Fillmore"><city>San Francisco</city><state>CA</state><geolocation lat="37.779160" lon="-122.420049"/></venue></show></tour>

<tour band="Clap Your Hands Say Yeah"><show date="11/12/07"><venue name="The Middle East (Downstairs)"><city>Cambridge</city><state>MA</state><geolocation lat="42.366790" lon="-71.106019"/></venue></show><show date="11/16/07"><venue name="Starlight Ballroom"><city>Philadelphia</city><state>PA</state><geolocation lat="39.952270" lon="-75.162369"/></venue></show><show date="11/14/07"><venue name="Studio B"><city>Brooklyn</city><state>NY</state><geolocation lat="40.692385" lon="-73.989872"/></venue></show><show date="11/13/07"><venue name="Bowery Ballroom"><city>New York</city><state>NY</state><geolocation lat="40.714550" lon="-74.007124"/></venue></show></tour>

<tour band="Modest Mouse"><show date="12/3/07"><venue name="Orpheum Theatre"><city>Minneapolis</city><state>MN</state><geolocation lat="44.978630" lon="-93.265244"/></venue></show><show date="12/2/07"><venue name="Congress Theater"><city>Chicago</city><state>IL</state><geolocation lat="41.884150" lon="-87.632419"/></venue></show></tour>

<tour band="Regina Spektor">
	<show date="10/28/07">
		<venue name="Shoreline Amphitheatre"><city>Mountain View</city><state>CA</state><geolocation lat="37.389475" lon="-122.081694"/></venue></show>
	<show date="10/27/07"><venue name="Shoreline Amphitheatre"><city>Mountain View</city><state>CA</state><geolocation lat="37.389475" lon="-122.081694"/></venue></show><show date="10/31/07"><venue name="The Grove of Anaheim"><city>Anaheim</city><state>CA</state><geolocation lat="33.832760" lon="-117.915719"/></venue></show><show date="11/6/07"><venue name="Stubb's BBQ"><city>Austin</city><state>TX</state><geolocation lat="30.267580" lon="-97.742994"/></venue></show><show date="10/16/07"><venue name="Hammerstein Ballroom"><city>New York</city><state>NY</state><geolocation lat="40.714550" lon="-74.007124"/></venue></show><show date="10/30/07"><venue name="The Wiltern LG"><city>Los Angeles</city><state>CA</state><geolocation lat="34.053290" lon="-118.245009"/></venue></show></tour>
	
	<tour band="She Wants Revenge"><show date="11/14/07"><venue name="The Fillmore"><city>San Francisco</city><state>CA</state><geolocation lat="37.779160" lon="-122.420049"/></venue></show><show date="10/27/07"><venue name="Black Cat"><city>Washington</city><state>DC</state><geolocation lat="38.889515" lon="-77.031959"/></venue></show><show date="11/7/07"><venue name="The Grove of Anaheim"><city>Anaheim</city><state>CA</state><geolocation lat="33.832760" lon="-117.915719"/></venue></show><show date="10/23/07"><venue name="Paradise Rock Club"><city>Boston</city><state>MA</state><geolocation lat="42.358635" lon="-71.056699"/></venue></show><show date="10/22/07"><venue name="Webster Hall"><city>New York</city><state>NY</state><geolocation lat="40.714550" lon="-74.007124"/></venue></show><show date="10/15/07"><venue name="Metro"><city>Chicago</city><state>IL</state><geolocation lat="41.884150" lon="-87.632419"/></venue></show><show date="11/10/07"><venue name="Henry Fonda Theatre"><city>Los Angeles</city><state>CA</state><geolocation lat="34.053290" lon="-118.245009"/></venue></show><show date="11/9/07"><venue name="Henry Fonda Theatre"><city>Los Angeles</city><state>CA</state><geolocation lat="34.053290" lon="-118.245009"/></venue></show></tour>
	
	<tour band="Spoon"><show date="10/17/07"><venue name="The Roxy"><city>Bostonn</city><state>MA</state><geolocation lat="42.358635" lon="-71.056699"/></venue></show><show date="10/19/07"><venue name="Electric Factory"><city>Philadelphia</city><state>PA</state><geolocation lat="39.952270" lon="-75.162369"/></venue></show><show date="10/20/07"><venue name="Roseland Ballroom"><city>New York</city><state>NY</state><geolocation lat="40.714550" lon="-74.007124"/></venue></show></tour>
	
	<tour band="The Hives"><show date="10/17/07"><venue name="Black Cat"><city>Washington</city><state>DC</state><geolocation lat="38.889515" lon="-77.031959"/></venue></show><show date="10/15/07"><venue name="TD BankNorth Garden"><city>Boston</city><state>MA</state><geolocation lat="42.358635" lon="-71.056699"/></venue></show><show date="11/8/07"><venue name="Staples Center"><city>Los Angeles</city><state>CA</state><geolocation lat="34.053290" lon="-118.245009"/></venue></show><show date="11/6/07"><venue name="HP Pavilion"><city>San Jose</city><state>CA</state><geolocation lat="37.352843" lon="-121.904679"/></venue></show></tour>
	
	<tour band="Architecture in Helsinki"><show date="11/5/07"><venue name="The Glasshouse"><city>Pomona</city><state>CA</state><geolocation lat="34.054645" lon="-117.750024"/></venue></show><show date="11/14/07"><venue name="Emo's"><city>Austin</city><state>TX</state><geolocation lat="30.267580" lon="-97.742994"/></venue></show><show date="10/24/07"><venue name="The 400 Bar"><city>Minneapolis</city><state>MN</state><geolocation lat="44.978630" lon="-93.265244"/></venue></show><show date="10/29/07"><venue name="Showbox"><city>Seattle</city><state>WA</state><geolocation lat="47.603470" lon="-122.329729"/></venue></show><show date="10/16/07"><venue name="Metro"><city>Chicago</city><state>IL</state><geolocation lat="41.884150" lon="-87.632419"/></venue></show><show date="11/5/07"><venue name="Troubadour"><city>West Hollywood</city><state>CA</state><geolocation lat="34.090685" lon="-118.370934"/></venue></show><show date="11/1/07"><venue name="The Fillmore"><city>San Francisco</city><state>CA</state><geolocation lat="37.779160" lon="-122.420049"/></venue></show></tour>
	
	<tour band="Band of Horses"><show date="11/7/07"><venue name="Pearl Street Nightclub"><city>Northampton</city><state>MA</state><geolocation lat="42.317816" lon="-72.632384"/></venue></show><show date="11/14/07"><venue name="First Avenue"><city>Minneapolis</city><state>MN</state><geolocation lat="44.978630" lon="-93.265244"/></venue></show><show date="11/20/07"><venue name="Showbox"><city>Seattle</city><state>WA</state><geolocation lat="47.603470" lon="-122.329729"/></venue></show><show date="11/19/07"><venue name="Showbox"><city>Seattle</city><state>WA</state><geolocation lat="47.603470" lon="-122.329729"/></venue></show><show date="10/20/07"><venue name="Bowery Ballroom"><city>New York</city><state>NY</state><geolocation lat="40.714550" lon="-74.007124"/></venue></show><show date="11/12/07"><venue name="Metro"><city>Chicago</city><state>IL</state><geolocation lat="41.884150" lon="-87.632419"/></venue></show><show date="11/3/07"><venue name="Lupo's Heartbreak Hotel"><city>Providence</city><state>RI</state><geolocation lat="41.823875" lon="-71.411994"/></venue></show><show date="11/23/07"><venue name="Mezzanine"><city>San Francisco</city><state>CA</state><geolocation lat="37.779160" lon="-122.420049"/></venue></show><show date="11/26/07"><venue name="The Glasshouse"><city>Pomona</city><state>CA</state><geolocation lat="34.054645" lon="-117.750024"/></venue></show><show date="11/24/07"><venue name="The Avalon"><city>Los Angeles</city><state>CA</state><geolocation lat="34.053290" lon="-118.245009"/></venue></show></tour>
	
	<tour band="Of Montreal"><show date="11/11/07"><venue name="The Glasshouse"><city>Pomona</city><state>CA</state><geolocation lat="34.054645" lon="-117.750024"/></venue></show><show date="11/3/07"><venue name="Waterloo Park"><city>Austin</city><state>TX</state><geolocation lat="30.267580" lon="-97.742994"/></venue></show><show date="11/9/07"><venue name="The Avalon"><city>Los Angeles</city><state>CA</state><geolocation lat="34.053290" lon="-118.245009"/></venue></show><show date="11/8/07"><venue name="The Avalon"><city>Los Angeles</city><state>CA</state><geolocation lat="34.053290" lon="-118.245009"/></venue></show><show date="11/14/07"><venue name="Great American Music Hall"><city>San Francisco</city><state>CA</state><geolocation lat="37.779160" lon="-122.420049"/></venue></show><show date="11/13/07"><venue name="Great American Music Hall"><city>San Francisco</city><state>CA</state><geolocation lat="37.779160" lon="-122.420049"/></venue></show><show date="11/12/07"><venue name="Great American Music Hall"><city>San Francisco</city><state>CA</state><geolocation lat="37.779160" lon="-122.420049"/></venue></show></tour>
	
	<tour band="Pinback"><show date="10/22/07"><venue name="Showbox"><city>Seattle</city><state>WA</state><geolocation lat="47.603470" lon="-122.329729"/></venue></show><show date="10/26/07"><venue name="Bimbo's 365 Club"><city>San Francisco</city><state>CA</state><geolocation lat="37.779160" lon="-122.420049"/></venue></show><show date="10/25/07"><venue name="Bimbo's 365 Club"><city>San Francisco</city><state>CA</state><geolocation lat="37.779160" lon="-122.420049"/></venue></show><show date="10/17/07"><venue name="Fine Line Music Cafe"><city>Minneapolis</city><state>MN</state><geolocation lat="44.978630" lon="-93.265244"/></venue></show></tour>
	
	<tour band="Shooter Jennings"><show date="10/23/07"><venue name="Bowery Ballroom"><city>New York</city><state>NY</state><geolocation lat="40.714550" lon="-74.007124"/></venue></show><show date="10/26/07"><venue name="Cabooze"><city>Minneapolis</city><state>MN</state><geolocation lat="44.978630" lon="-93.265244"/></venue></show></tour>
	
	<tour band="Stars"><show date="11/10/07"><venue name="Orpheum Theatre"><city>Los Angeles</city><state>CA</state><geolocation lat="34.053290" lon="-118.245009"/></venue></show><show date="10/24/07"><venue name="Starlight Ballroom"><city>Philadelphia</city><state>PA</state><geolocation lat="39.952270" lon="-75.162369"/></venue></show><show date="10/19/07"><venue name="Berklee Performance Center"><city>Boston</city><state>MA</state><geolocation lat="42.358635" lon="-71.056699"/></venue></show><show date="10/30/07"><venue name="Stubb's BBQ"><city>Austin</city><state>TX</state><geolocation lat="30.267580" lon="-97.742994"/></venue></show><show date="11/16/07"><venue name="Showbox"><city>Seattle</city><state>WA</state><geolocation lat="47.603470" lon="-122.329729"/></venue></show><show date="10/18/07"><venue name="Town Hall"><city>New York</city><state>NY</state><geolocation lat="40.714550" lon="-74.007124"/></venue></show><show date="11/2/07"><venue name="The Vic Theatre"><city>Chicago</city><state>IL</state><geolocation lat="41.884150" lon="-87.632419"/></venue></show><show date="11/14/07"><venue name="Bimbo's 365 Club"><city>San Francisco</city><state>CA</state><geolocation lat="37.779160" lon="-122.420049"/></venue></show><show date="11/13/07"><venue name="Bimbo's 365 Club"><city>San Francisco</city><state>CA</state><geolocation lat="37.779160" lon="-122.420049"/></venue></show></tour>
	
	<tour band="Ted Leo and the Pharmacists"><show date="10/23/07"><venue name="Neumo's"><city>Seattle</city><state>WA</state><geolocation lat="47.603470" lon="-122.329729"/></venue></show><show date="12/1/07"><venue name="The Roxy"><city>Boston</city><state>MA</state><geolocation lat="42.358635" lon="-71.056699"/></venue></show><show date="12/5/07"><venue name="Webster Hall"><city>New York</city><state>NY</state><geolocation lat="40.714550" lon="-74.007124"/></venue></show><show date="12/6/07"><venue name="Starlight Ballroom"><city>Philadelphia</city><state>PA</state><geolocation lat="39.952270" lon="-75.162369"/></venue></show><show date="10/26/07"><venue name="Great American Music Hall"><city>San Francisco</city><state>CA</state><geolocation lat="37.779160" lon="-122.420049"/></venue></show></tour>
	
	<tour band="The Decemberists"><show date="12/9/07"><venue name="Moore Theatre"><city>Seattle</city><state>WA</state><geolocation lat="47.603470" lon="-122.329729"/></venue></show><show date="12/8/07"><venue name="Moore Theatre"><city>Seattle</city><state>WA</state><geolocation lat="47.603470" lon="-122.329729"/></venue></show><show date="10/29/07"><venue name="The Vic Theatre"><city>Chicago</city><state>IL</state><geolocation lat="41.884150" lon="-87.632419"/></venue></show><show date="10/28/07"><venue name="The Vic Theatre"><city>Chicago</city><state>IL</state><geolocation lat="41.884150" lon="-87.632419"/></venue></show><show date="11/3/07"><venue name="The Orpheum"><city>Boston</city><state>MA</state><geolocation lat="42.358635" lon="-71.056699"/></venue></show><show date="11/4/07"><venue name="The Orpheum"><city>Boston</city><state>MA</state><geolocation lat="42.358635" lon="-71.056699"/></venue></show><show date="11/26/07"><venue name="The Fillmore"><city>San Francisco</city><state>CA</state><geolocation lat="37.779160" lon="-122.420049"/></venue></show><show date="11/25/07"><venue name="The Fillmore"><city>San Francisco</city><state>CA</state><geolocation lat="37.779160" lon="-122.420049"/></venue></show><show date="11/24/07"><venue name="The Fillmore"><city>San Francisco</city><state>CA</state><geolocation lat="37.779160" lon="-122.420049"/></venue></show><show date="11/23/07"><venue name="The Fillmore"><city>San Francisco</city><state>CA</state><geolocation lat="37.779160" lon="-122.420049"/></venue></show></tour>
</TourList>